[
  {
    "id": "SVC001",
    "name": "City Hospital Emergency",
    "category": "hospital",
    "phone": "+1-555-0100",
    "address": "100 Medical Plaza",
    "zone": "Downtown",
    "location": { "lat": 40.7148, "lng": -74.0080 },
    "hours": "24/7",
    "rating": 4.5
  },
  {
    "id": "SVC002",
    "name": "Central Police Station",
    "category": "police",
    "phone": "+1-555-0911",
    "address": "200 Justice Avenue",
    "zone": "City Center",
    "location": { "lat": 40.7168, "lng": -74.0090 },
    "hours": "24/7",
    "rating": 4.2
  },
  {
    "id": "SVC003",
    "name": "Fire Department Station 5",
    "category": "fire",
    "phone": "+1-555-0912",
    "address": "300 Rescue Road",
    "zone": "North District",
    "location": { "lat": 40.7248, "lng": -74.0180 },
    "hours": "24/7",
    "rating": 4.8
  },
  {
    "id": "SVC004",
    "name": "Green Valley Pharmacy",
    "category": "pharmacy",
    "phone": "+1-555-0200",
    "address": "400 Health Street",
    "zone": "East Side",
    "location": { "lat": 40.7348, "lng": -74.0280 },
    "hours": "8:00 AM - 10:00 PM",
    "rating": 4.3
  },
  {
    "id": "SVC005",
    "name": "City Community Center",
    "category": "community",
    "phone": "+1-555-0300",
    "address": "500 Community Way",
    "zone": "West Avenue",
    "location": { "lat": 40.7448, "lng": -74.0380 },
    "hours": "9:00 AM - 9:00 PM",
    "rating": 4.6
  },
  {
    "id": "SVC006",
    "name": "Public Library Main Branch",
    "category": "library",
    "phone": "+1-555-0400",
    "address": "600 Knowledge Avenue",
    "zone": "City Center",
    "location": { "lat": 40.7188, "lng": -74.0100 },
    "hours": "9:00 AM - 8:00 PM",
    "rating": 4.7
  },
  {
    "id": "SVC007",
    "name": "Metro Bus Terminal",
    "category": "transport",
    "phone": "+1-555-0500",
    "address": "700 Transit Plaza",
    "zone": "Downtown",
    "location": { "lat": 40.7108, "lng": -74.0040 },
    "hours": "5:00 AM - 12:00 AM",
    "rating": 3.9
  },
  {
    "id": "SVC008",
    "name": "Emergency Shelter",
    "category": "shelter",
    "phone": "+1-555-0600",
    "address": "800 Haven Street",
    "zone": "South Park",
    "location": { "lat": 40.7048, "lng": -73.9980 },
    "hours": "24/7",
    "rating": 4.4
  }
]
